{"type": "FeatureCollection", "features": [{"type": "Feature", "properties": {"name": "Tokyo Ueno Youth Hostel (HOME)", "styleUrl": "#icon-1475-labelson-nodesc"}, "geometry": {"type": "Point", "coordinates": [139.7702777, 35.7064224, 0.0]}}, {"type": "Feature", "properties": {"name": "Senbonto Shrine", "styleUrl": "#icon-1502-FFEA00-nodesc"}, "geometry": {"type": "Point", "coordinates": [139.7605557, 35.7196347, 0.0]}}, {"type": "Feature", "properties": {"name": "DAWN | Avatar Robot Cafe ver.\u03b2", "styleUrl": "#icon-1502-FFEA00-nodesc"}, "geometry": {"type": "Point", "coordinates": [139.7760205, 35.6893781, 0.0]}}, {"type": "Feature", "properties": {"name": "Hotel Gajoen Tokyo", "styleUrl": "#icon-1502-FFEA00-nodesc"}, "geometry": {"type": "Point", "coordinates": [139.7137936, 35.6317881, 0.0]}}, {"type": "Feature", "properties": {"name": "Caretta Shiodome", "styleUrl": "#icon-1502-FFEA00-nodesc"}, "geometry": {"type": "Point", "coordinates": [139.7625223, 35.6644594, 0.0]}}, {"type": "Feature", "properties": {"name": "Shinjuku Golden-Gai", "styleUrl": "#icon-1502-FFEA00-nodesc"}, "geometry": {"type": "Point", "coordinates": [139.7047611, 35.6941118, 0.0]}}, {"type": "Feature", "properties": {"name": "Suga Shrine Onnazaka", "styleUrl": "#icon-1502-FFEA00-nodesc"}, "geometry": {"type": "Point", "coordinates": [139.7229453, 35.6853043, 0.0]}}, {"type": "Feature", "properties": {"name": "Godzilla Head", "styleUrl": "#icon-1502-FFEA00-nodesc"}, "geometry": {"type": "Point", "coordinates": [139.7019117, 35.6950521, 0.0]}}, {"type": "Feature", "properties": {"name": "The National Art Center", "styleUrl": "#icon-1502-FFEA00-nodesc"}, "geometry": {"type": "Point", "coordinates": [139.726374, 35.665289, 0.0]}}, {"type": "Feature", "properties": {"name": "RED\u00b0 TOKYO TOWER", "styleUrl": "#icon-1502-FFEA00-nodesc"}, "geometry": {"type": "Point", "coordinates": [139.745484, 35.6585696, 0.0]}}, {"type": "Feature", "properties": {"name": "ART AQUARIUM MUSEUM", "styleUrl": "#icon-1502-FFEA00-nodesc"}, "geometry": {"type": "Point", "coordinates": [139.7657375, 35.6713698, 0.0]}}, {"type": "Feature", "properties": {"name": "Ginza Six Rooftop Garden", "styleUrl": "#icon-1502-FFEA00-nodesc"}, "geometry": {"type": "Point", "coordinates": [139.7641037, 35.6699047, 0.0]}}, {"type": "Feature", "properties": {"name": "Toranomon Kotohiragu", "styleUrl": "#icon-1502-FFEA00-nodesc"}, "geometry": {"type": "Point", "coordinates": [139.7480255, 35.6696344, 0.0]}}, {"type": "Feature", "properties": {"name": "TOKYO BUNBUN(\u6771\u4eac\u6587\u805e)", "description": "Optional Fight Choreography experience.", "styleUrl": "#icon-1502-FFEA00"}, "geometry": {"type": "Point", "coordinates": [139.781992, 35.7257206, 0.0]}}, {"type": "Feature", "properties": {"name": "Kawagoe", "styleUrl": "#icon-1502-FFEA00-nodesc"}, "geometry": {"type": "Point", "coordinates": [139.4858042, 35.9251335, 0.0]}}, {"type": "Feature", "properties": {"name": "Kashiya Yokocho", "styleUrl": "#icon-1502-FFEA00-nodesc"}, "geometry": {"type": "Point", "coordinates": [139.4810513, 35.9250599, 0.0]}}, {"type": "Feature", "properties": {"name": "Setagaya Literary Museum", "styleUrl": "#icon-1502-FFEA00-nodesc"}, "geometry": {"type": "Point", "coordinates": [139.6086785, 35.6669245, 0.0]}}, {"type": "Feature", "properties": {"name": "Toho Studios", "styleUrl": "#icon-1502-FFEA00-nodesc"}, "geometry": {"type": "Point", "coordinates": [139.6044637, 35.6348426, 0.0]}}, {"type": "Feature", "properties": {"name": "Animate Annex", "styleUrl": "#icon-1502-FFEA00-nodesc"}, "geometry": {"type": "Point", "coordinates": [139.7176268, 35.7300233, 0.0]}}, {"type": "Feature", "properties": {"name": "teamLab Borderless: MORI Building DIGITAL ART MUSEUM", "styleUrl": "#icon-1502-FFEA00-nodesc"}, "geometry": {"type": "Point", "coordinates": [139.7432671, 35.6620689, 0.0]}}, {"type": "Feature", "properties": {"name": "The Japanese Sword Museum", "styleUrl": "#icon-1502-FFEA00-nodesc"}, "geometry": {"type": "Point", "coordinates": [139.7936629, 35.6989606, 0.0]}}, {"type": "Feature", "properties": {"name": "The Sumida Hokusai Museum", "styleUrl": "#icon-1502-FFEA00-nodesc"}, "geometry": {"type": "Point", "coordinates": [139.800414, 35.6963313, 0.0]}}, {"type": "Feature", "properties": {"name": "Edo-Tokyo Museum", "styleUrl": "#icon-1502-FFEA00-nodesc"}, "geometry": {"type": "Point", "coordinates": [139.7957336, 35.6965972, 0.0]}}, {"type": "Feature", "properties": {"name": "Kameido Tenjin Shrine", "styleUrl": "#icon-1502-FFEA00-nodesc"}, "geometry": {"type": "Point", "coordinates": [139.8206618, 35.7030288, 0.0]}}, {"type": "Feature", "properties": {"name": "Kameido Tenjin Wisteria Frames", "styleUrl": "#icon-1502-FFEA00-nodesc"}, "geometry": {"type": "Point", "coordinates": [139.8207747, 35.7022776, 0.0]}}, {"type": "Feature", "properties": {"name": "Tokyo Skytree", "styleUrl": "#icon-1502-FFEA00-nodesc"}, "geometry": {"type": "Point", "coordinates": [139.8107004, 35.7100627, 0.0]}}, {"type": "Feature", "properties": {"name": "Imperial Palace Main Gate Ishibashi Ornamental Lamp (13 Assassins, Kubi)", "styleUrl": "#icon-1727-673AB7-labelson-nodesc"}, "geometry": {"type": "Point", "coordinates": [139.5141002, 35.7158495, 0.0]}}, {"type": "Feature", "properties": {"name": "Tama River Area (Adrift in Tokyo)", "description": "Adrift in Tokyo (Satoshi Miki)\u00a0Popular location for walking scenes in the film.", "styleUrl": "#icon-1727-673AB7-labelson"}, "geometry": {"type": "Point", "coordinates": [139.6311827, 35.6191748, 0.0]}}, {"type": "Feature", "properties": {"name": "Roppongi Hills Mori Tower (Tokyo Drift)", "description": "Fast and Furious: Tokyo Drift (Justin Lin)", "styleUrl": "#icon-1727-673AB7-labelson"}, "geometry": {"type": "Point", "coordinates": [139.7292066, 35.6607345, 0.0]}}, {"type": "Feature", "properties": {"name": "Tokyo Tower (Godzilla and others)", "description": "Godzilla Minus One (2023, Takashi Yamazaki)<br>And Godzilla Statue!", "styleUrl": "#icon-1727-673AB7-labelson"}, "geometry": {"type": "Point", "coordinates": [139.745484, 35.6585696, 0.0]}}, {"type": "Feature", "properties": {"name": "Godzilla Square!", "styleUrl": "#icon-1727-673AB7-labelson-nodesc"}, "geometry": {"type": "Point", "coordinates": [139.7599204, 35.6730915, 0.0]}}, {"type": "Feature", "properties": {"name": "Rikkyo University (Tokyo Ghoul)", "description": "Rikkyo University (Kamii University)<br>The real-life inspiration for Kamii University, where Kaneki and Hide attend.", "styleUrl": "#icon-1727-673AB7-labelson"}, "geometry": {"type": "Point", "coordinates": [139.702509, 35.7305152, 0.0]}}, {"type": "Feature", "properties": {"name": "Shinjuku Station East Exit Smoking Area (Tokyo Ghoul)", "description": "Shinjuku Station East Exit<br>This busy hub features in a key scene when Kaneki goes to meet Touka.", "styleUrl": "#icon-1727-673AB7-labelson"}, "geometry": {"type": "Point", "coordinates": [139.7007164, 35.6922643, 0.0]}}, {"type": "Feature", "properties": {"name": "Kabukich\u014d (Tokyo Ghoul)", "description": "Kabukicho Crossing<br>Known as the nightlife district of Shinjuku, Kabukicho features in multiple scenes of Tokyo Ghoul.", "styleUrl": "#icon-1727-673AB7-labelson"}, "geometry": {"type": "Point", "coordinates": [139.7019065, 35.6936049, 0.0]}}, {"type": "Feature", "properties": {"name": "Yotsuya Station (Your Name)", "description": "Featured multiple times in the film, this station is near many key locations.", "styleUrl": "#icon-1727-673AB7-labelson"}, "geometry": {"type": "Point", "coordinates": [139.7302183, 35.6861525, 0.0]}}, {"type": "Feature", "properties": {"name": "Takeshita Street Entrance Arch (JJK and Tokyo Drift)", "description": "Another key spot in Jujutsu Kaisen, where the trio meets Nobara.<br><br>Also seen in Tokyo Drift.", "styleUrl": "#icon-1727-673AB7-labelson"}, "geometry": {"type": "Point", "coordinates": [139.7032327, 35.6715743, 0.0]}}, {"type": "Feature", "properties": {"name": "Edo-Tokyo Open Air Architectural Museum (JJK) (Samurai)", "description": "JJK: Culling Game;\u00a0the Zenin clan house", "styleUrl": "#icon-1727-673AB7-labelson"}, "geometry": {"type": "Point", "coordinates": [139.5125434, 35.7155722, 0.0]}}, {"type": "Feature", "properties": {"name": "Adachi City (Shoplifters)", "description": "The film captures the quieter, more suburban neighborhoods of Tokyo.", "styleUrl": "#icon-1727-673AB7-labelson"}, "geometry": {"type": "Point", "coordinates": [139.8044129, 35.775017, 0.0]}}, {"type": "Feature", "properties": {"name": "Tokyo Station (First Ward)", "description": "The 1st Ward is where the CCG Main Office is located, and it serves as the headquarters for anti-Ghoul operations. It\u2019s based on Chiyoda, home to major governmental buildings and Tokyo Station.<br>Notable Spot: Tokyo Station, a historic station with modern vibes, representing the CCG's power and influence.", "styleUrl": "#icon-1727-673AB7-labelson"}, "geometry": {"type": "Point", "coordinates": [139.7671248, 35.6812362, 0.0]}}, {"type": "Feature", "properties": {"name": "Roppongi (3rd Ward)", "description": "Description: The 3rd Ward features Roppongi, a famous nightlife district and key location in Tokyo Ghoul where Kaneki and Rize go on their fateful date.<br>Notable Spot: Roppongi Hills, known for its luxury shopping and skyline views, including a perfect view of Tokyo Tower at night.", "styleUrl": "#icon-1727-673AB7-labelson"}, "geometry": {"type": "Point", "coordinates": [139.7345469, 35.6618586, 0.0]}}, {"type": "Feature", "properties": {"name": "Tokyo Skytree (6th Ward)", "description": "Description: In Tokyo Ghoul, the 6th Ward is known for its high-tech vibe, which is mirrored by Tait\u014d\u2019s Tokyo Skytree, the tallest tower in Japan, representing a modern and futuristic Tokyo.<br>Notable Spot: Tokyo Skytree \u2014 a great spot for viewing Tokyo\u2019s cityscape and tying in the \"Neo-Tokyo\" feel.", "styleUrl": "#icon-1727-673AB7-labelson"}, "geometry": {"type": "Point", "coordinates": [139.8107004, 35.7100627, 0.0]}}, {"type": "Feature", "properties": {"name": "Tokyo Metropolitan Government Building (JJK)", "description": "Description: This towering building, located in Shinjuku, appears in Jujutsu Kaisen and is an iconic structure in Tokyo. It\u2019s featured when major city-wide incidents unfold in the series.", "styleUrl": "#icon-1727-673AB7-labelson"}, "geometry": {"type": "Point", "coordinates": [139.6916863, 35.6894807, 0.0]}}, {"type": "Feature", "properties": {"name": "Aoyama Cemetery (JJK)", "description": "Description: This location serves as the setting for darker moments in Jujutsu Kaisen. Aoyama Cemetery, known for its peaceful setting amidst the city, provides the backdrop for eerie scenes in the show.", "styleUrl": "#icon-1727-673AB7-labelson"}, "geometry": {"type": "Point", "coordinates": [139.7220659, 35.6656277, 0.0]}}, {"type": "Feature", "properties": {"name": "Yoyogi National Gymnasium (JJK)", "description": "Description: This landmark appears during the events of the series, representing a key battle arena.", "styleUrl": "#icon-1727-673AB7-labelson"}, "geometry": {"type": "Point", "coordinates": [139.7001458, 35.6676472, 0.0]}}, {"type": "Feature", "properties": {"name": "Hotel Gajoen Tokyo (Sprited Away)", "description": "Hotel Gajoen in Tokyo is believed to have inspired the design of the bathhouse in Spirited Away. Known as one of Tokyo's \"Museum Hotels,\" the hotel features stunning, traditional Japanese architecture with lavish interior designs, ornate rooms, and unique artistic displays, closely resembling the detailed design of the bathhouse in the film.", "styleUrl": "#icon-1727-673AB7-labelson"}, "geometry": {"type": "Point", "coordinates": [139.7137936, 35.6317881, 0.0]}}, {"type": "Feature", "properties": {"name": "NTV Big Clock designed by Hayao Miyazaki", "description": "Description: A giant mechanical clock designed by Hayao Miyazaki himself, this Ghibli-themed clock is located outside Nippon Television Tower in Shiodome. Every hour, the clock comes alive with a whimsical performance.", "styleUrl": "#icon-1727-673AB7-labelson"}, "geometry": {"type": "Point", "coordinates": [139.7599544, 35.6641255, 0.0]}}, {"type": "Feature", "properties": {"name": "Suga Shrine (Your Name)", "description": "The staircase where the characters meet in Your Name is located near Suga Shrine in Yotsuya, Tokyo. This spot has become a pilgrimage site for fans of the movie.", "styleUrl": "#icon-1727-673AB7-labelson"}, "geometry": {"type": "Point", "coordinates": [139.7224783, 35.6852851, 0.0]}}, {"type": "Feature", "properties": {"name": "Asukayama Park (Spirited Away)", "description": "Old anime style yellow bus that can be used for scene recreations.", "styleUrl": "#icon-1727-673AB7-labelson"}, "geometry": {"type": "Point", "coordinates": [139.7388228, 35.7504718, 0.0]}}, {"type": "Feature", "properties": {"name": "Tamagawa Aqueduct Greenway (Garden of Words)", "description": "Scene: The shaded pathways of the Tamagawa Aqueduct serve as the setting for reflective walks in The Garden of Words.", "styleUrl": "#icon-1727-673AB7-labelson"}, "geometry": {"type": "Point", "coordinates": [139.6631049, 35.67116, 0.0]}}, {"type": "Feature", "properties": {"name": "Shinanomachi Station (Your Name)", "styleUrl": "#icon-1727-673AB7-labelson-nodesc"}, "geometry": {"type": "Point", "coordinates": [139.7203199, 35.6800602, 0.0]}}, {"type": "Feature", "properties": {"name": "Rainbow Bridge (Weathering With You)", "styleUrl": "#icon-1727-673AB7-labelson-nodesc"}, "geometry": {"type": "Point", "coordinates": [139.7631443, 35.6365639, 0.0]}}, {"type": "Feature", "properties": {"name": "Fujiwara Tofu Shop (Initial D)", "description": "The Tofu Ship from Initial D.", "styleUrl": "#icon-1727-673AB7-labelson"}, "geometry": {"type": "Point", "coordinates": [139.7922582, 35.6910119, 0.0]}}, {"type": "Feature", "properties": {"name": "D'z Racing Cafe Garage (Initial D)", "description": "Racing Cafe from Initial D.", "styleUrl": "#icon-1727-673AB7-labelson"}, "geometry": {"type": "Point", "coordinates": [138.959498, 36.50077, 0.0]}}, {"type": "Feature", "properties": {"name": "Fujiwara Tofu Shop (Initial D)", "description": "Original Tofu shop and now museum for Initial D.", "styleUrl": "#icon-1727-673AB7-labelson"}, "geometry": {"type": "Point", "coordinates": [138.9698489, 36.4634982, 0.0]}}, {"type": "Feature", "properties": {"name": "National Diet Building (Shin Godzilla)", "description": "Shin Godzilla.", "styleUrl": "#icon-1727-673AB7-labelson"}, "geometry": {"type": "Point", "coordinates": [139.744858, 35.675888, 0.0]}}, {"type": "Feature", "properties": {"name": "Wako Namiki-Dori Building (Godzilla Minus One)", "description": "Godzilla Minus One.", "styleUrl": "#icon-1727-673AB7-labelson"}, "geometry": {"type": "Point", "coordinates": [139.7644293, 35.6723536, 0.0]}}, {"type": "Feature", "properties": {"name": "Chuo-dori Avenue (Suzume, Tokyo Drift)", "description": "Seen briefly, especially for night traffic B-roll; actual street footage used in Tokyo Drift.", "styleUrl": "#icon-1727-673AB7-labelson"}, "geometry": {"type": "Point", "coordinates": [139.7739215, 35.6863768, 0.0]}}, {"type": "Feature", "properties": {"name": "Yokohama Red Brick Warehouse (Godzilla Minus One)", "styleUrl": "#icon-1727-673AB7-labelson-nodesc"}, "geometry": {"type": "Point", "coordinates": [139.6428944, 35.4526321, 0.0]}}, {"type": "Feature", "properties": {"name": "DevilCraft Kanda (Godzilla)", "description": "Technically,\u00a0 a filming site, but also a fun pizza place. Located in the Kanda area, Devil\u2019s Craft is a popular American-style craft beer bar known for its pizzas.", "styleUrl": "#icon-1727-673AB7-labelson"}, "geometry": {"type": "Point", "coordinates": [139.7711529, 35.6895898, 0.0]}}, {"type": "Feature", "properties": {"name": "Hijiri Bridge (Suzume)", "styleUrl": "#icon-1727-673AB7-labelson-nodesc"}, "geometry": {"type": "Point", "coordinates": [139.7655156, 35.699817, 0.0]}}, {"type": "Feature", "properties": {"name": "Ochanomizu Station (Suzume)", "styleUrl": "#icon-1727-673AB7-labelson-nodesc"}, "geometry": {"type": "Point", "coordinates": [139.7644404, 35.6997175, 0.0]}}, {"type": "Feature", "properties": {"name": "Sens\u014d-ji (Suzume)", "styleUrl": "#icon-1727-673AB7-labelson-nodesc"}, "geometry": {"type": "Point", "coordinates": [139.7966553, 35.7147651, 0.0]}}, {"type": "Feature", "properties": {"name": "Maneki-neko Hall (Kubi, 13 Assassins)", "description": "Known as the \u201cLucky Cat Temple,\u201d Gotokuji also has historical significance, with architecture and grounds that mirror the serene look of traditional samurai settings. Its quieter ambiance is ideal for contemplative scenes in a historical context.", "styleUrl": "#icon-1727-673AB7-labelson"}, "geometry": {"type": "Point", "coordinates": [139.6469949, 35.6483005, 0.0]}}, {"type": "Feature", "properties": {"name": "Kurazukuri no Machinami / Warehouse District (Kubi, 13 Assasssins)", "styleUrl": "#icon-1727-673AB7-labelson-nodesc"}, "geometry": {"type": "Point", "coordinates": [139.4829325, 35.923527, 0.0]}}, {"type": "Feature", "properties": {"name": "Edo Wonderland Nikko Edomura (Kubi, 13 Assassins).", "styleUrl": "#icon-1727-673AB7-labelson-nodesc"}, "geometry": {"type": "Point", "coordinates": [139.6973346, 36.7908146, 0.0]}}, {"type": "Feature", "properties": {"name": "Kawagoe Kumano Shrine", "description": "A small, atmospheric shrine known for its spiritual atmosphere and sacred trees. It\u2019s featured in anime like Tsuki ga Kirei as a local meeting spot. The shrine is popular among locals for its calming presence and traditional rituals.", "styleUrl": "#icon-1727-673AB7-labelson"}, "geometry": {"type": "Point", "coordinates": [139.4831082, 35.9191372, 0.0]}}, {"type": "Feature", "properties": {"name": "Azabujuban (Tokyo Drift)", "description": "Exterior of Sean\u2019s dad\u2019s house; demolished, but real location at Mita 1-chome block 10", "styleUrl": "#icon-1727-673AB7-labelson"}, "geometry": {"type": "Point", "coordinates": [139.7351855, 35.6546541, 0.0]}}, {"type": "Feature", "properties": {"name": "Kawagoe Hikawa Shrine", "description": "DandaDan:\u00a0Used by pilgrims as a thematic stand-in within Kamigoe\u2019s shrine-town atmosphere (links to Kawagoe festival culture seen around Old Town).<br><br>Tsukigakirei; as itself.", "styleUrl": "#icon-1727-673AB7-labelson"}, "geometry": {"type": "Point", "coordinates": [139.4885588, 35.9275498, 0.0]}}, {"type": "Feature", "properties": {"name": "Takazawa bridge", "description": "A simple yet picturesque bridge featured in Tsuki ga Kirei. It serves as an iconic spot where characters share conversations and quiet moments, capturing the atmosphere of a small Japanese town.", "styleUrl": "#icon-1727-673AB7-labelson"}, "geometry": {"type": "Point", "coordinates": [139.4802685, 35.9252289, 0.0]}}, {"type": "Feature", "properties": {"name": "Kenryuji", "description": "A peaceful temple surrounded by greenery, appearing as a calming background in anime and travel shows. Its understated charm and traditional architecture make it a fitting place for contemplative scenes.", "styleUrl": "#icon-1727-673AB7-labelson"}, "geometry": {"type": "Point", "coordinates": [139.4801863, 35.9245981, 0.0]}}, {"type": "Feature", "properties": {"name": "Japan Post", "description": "This post office appears in Tsuki ga Kirei when Kotaro posts a letter, showing a mundane yet relatable part of daily life in Kawagoe. It\u2019s an understated but recognizable spot for fans.", "styleUrl": "#icon-1727-673AB7-labelson"}, "geometry": {"type": "Point", "coordinates": [139.4857031, 35.9184603, 0.0]}}, {"type": "Feature", "properties": {"name": "Tower Records Shibuya", "description": "Taki is seen walking in front of this building at the opening.<br><br>Movie time: 00h 02m 22s", "styleUrl": "#icon-1727-673AB7-labelson"}, "geometry": {"type": "Point", "coordinates": [139.7010906, 35.6619049, 0.0]}}, {"type": "Feature", "properties": {"name": "4-ch\u014dme-5-1 Azabuj\u016bban (Tokyo Drift)", "description": "Seen during early scenes at Sean\u2019s new home\u2014visible from the bridge area", "styleUrl": "#icon-1727-673AB7-labelson"}, "geometry": {"type": "Point", "coordinates": [139.7375452, 35.6538817, 0.0]}}, {"type": "Feature", "properties": {"name": "35.693700, 139.70089", "description": "Place of the \"Yukina-Vision\" building, shown in one of the time lapses. Also Taki is seen standing there and stretching his arm towards Mitsuha in the opening.<br><br>Movie time: 00h 00m 35s and 00h 32m 00s", "styleUrl": "#icon-1727-673AB7-labelson"}, "geometry": {"type": "Point", "coordinates": [139.70089, 35.6937, 0.0]}}, {"type": "Feature", "properties": {"name": "35\u00b040'48.9\"N 139\u00b043'08.7\"E", "description": "Mitsuha is seen running in the pedestrian walk over the train line, looking for Taki, at the end of the movie.<br><br>Movie time: 1h39m38s", "styleUrl": "#icon-1727-673AB7-labelson"}, "geometry": {"type": "Point", "coordinates": [139.719083333333, 35.68025, 0.0]}}, {"type": "Feature", "properties": {"name": "\u65b0\u90fd\u5fc3\u6b69\u9053\u6a4b", "description": "Pedestrian bridge in Shinjuku where Taki and Mitsuha walk cross each other without recognizing, and looking back at the wrong timing.<br><br>Movie time: 1h 37m 05s", "styleUrl": "#icon-1727-673AB7-labelson"}, "geometry": {"type": "Point", "coordinates": [139.697292, 35.6930965, 0.0]}}, {"type": "Feature", "properties": {"name": "Cafe La Boheme Shinjuku Gyoen", "description": "Cafe La Boheme. Real place that inspires the restaurant \"Il Giardino delle Parole\", where Taki and Okudera worked.<br><br>Movie time: 22m 57s.", "styleUrl": "#icon-1727-673AB7-labelson"}, "geometry": {"type": "Point", "coordinates": [139.7128716, 35.6875891, 0.0]}}, {"type": "Feature", "properties": {"name": "Shinanomachi Sta. Minamiguchi (South Exit)", "description": "Shinanomachi Station pedestrian bridge.<br><br>Taki and Okudera-sempai dismiss their date; Taki tried to comunicate with Mitsuha by phone in October 3rd, 2016. Movie time: 48m 31s<br><br>Mitsuha tried to locate Taki, October 3rd. 2016. Movie time: 1h 13m 49s.", "styleUrl": "#icon-1727-673AB7-labelson"}, "geometry": {"type": "Point", "coordinates": [139.719922, 35.679376, 0.0]}}, {"type": "Feature", "properties": {"name": "Shuto Expressway", "description": "Akira:\u00a0Inner Circular Route (used as a basis for Neo-Tokyo motorbike scenes", "styleUrl": "#icon-1727-673AB7-labelson"}, "geometry": {"type": "Point", "coordinates": [139.7082283, 35.7481626, 0.0]}}, {"type": "Feature", "properties": {"name": "Higashi-Nakano Station", "description": "Shoplifters:\u00a0 Residential scenes filmed near here", "styleUrl": "#icon-1727-673AB7-labelson"}, "geometry": {"type": "Point", "coordinates": [139.6837613, 35.7062478, 0.0]}}, {"type": "Feature", "properties": {"name": "Ueno Zoological Gardens", "description": "Tokyo Ghoul: some scenes set here (especially related to Kaneki\u2019s early trauma)", "styleUrl": "#icon-1727-673AB7-labelson"}, "geometry": {"type": "Point", "coordinates": [139.772882, 35.7160153, 0.0]}}, {"type": "Feature", "properties": {"name": "The National Art Center", "description": "(Suzume) \u2013 Scene with Tamaki", "styleUrl": "#icon-1727-673AB7-labelson"}, "geometry": {"type": "Point", "coordinates": [139.726374, 35.665289, 0.0]}}, {"type": "Feature", "properties": {"name": "Sukiyabashi Jiro", "description": "Jiro Dreams of Sushi.", "styleUrl": "#icon-1727-673AB7-labelson"}, "geometry": {"type": "Point", "coordinates": [139.7639378, 35.6727404, 0.0]}}, {"type": "Feature", "properties": {"name": "Sugoi Niboshi R\u0101men Nagi Shinjuku Golden Gai", "description": "A restaurant featured in Ramen Heads.", "styleUrl": "#icon-1727-673AB7-labelson"}, "geometry": {"type": "Point", "coordinates": [139.7045255, 35.6937641, 0.0]}}, {"type": "Feature", "properties": {"name": "Ramen Emoto Masahiro", "description": "Dried fish ramen shop from Ramen Heads.", "styleUrl": "#icon-1727-673AB7-labelson"}, "geometry": {"type": "Point", "coordinates": [139.694185, 35.6553945, 0.0]}}, {"type": "Feature", "properties": {"name": "Shuuichi (Ramen)", "description": "Curry ramen shop from Ramen Heads. A personal favorite.", "styleUrl": "#icon-1727-673AB7-labelson"}, "geometry": {"type": "Point", "coordinates": [139.7083209, 35.6472153, 0.0]}}, {"type": "Feature", "properties": {"name": "Tokyo Ramen Street", "styleUrl": "#icon-1727-673AB7-labelson-nodesc"}, "geometry": {"type": "Point", "coordinates": [139.7679568, 35.6802935, 0.0]}}, {"type": "Feature", "properties": {"name": "Nerima Station", "description": "Chainsaw Man, Episode 2. Sea Cucumber Devil sequence", "styleUrl": "#icon-1727-673AB7-labelson"}, "geometry": {"type": "Point", "coordinates": [139.6539158, 35.7377965, 0.0]}}, {"type": "Feature", "properties": {"name": "Pitat House - Nerimanishiguchi", "description": "Chainsaw Man;\u00a0Ep.2 city-street intercut in the same Nerima sequence.", "styleUrl": "#icon-1727-673AB7-labelson"}, "geometry": {"type": "Point", "coordinates": [139.6526821, 35.7380606, 0.0]}}, {"type": "Feature", "properties": {"name": "Takushoku University Bunkyo Campus", "description": "DandaDan;\u00a0model for \u201cKami High\u201d", "styleUrl": "#icon-1727-673AB7-labelson"}, "geometry": {"type": "Point", "coordinates": [139.7362701, 35.7154678, 0.0]}}, {"type": "Feature", "properties": {"name": "Shimazaki Book Binding Works", "description": "The alleyway from Chainsaw Man Reze.", "styleUrl": "#icon-1727-673AB7-labelson"}, "geometry": {"type": "Point", "coordinates": [139.7594378, 35.6976832, 0.0]}}, {"type": "Feature", "properties": {"name": "Trois Bagues", "styleUrl": "#icon-1727-673AB7-labelson-nodesc"}, "geometry": {"type": "Point", "coordinates": [139.7582493, 35.6962996, 0.0]}}, {"type": "Feature", "properties": {"name": "Onnazaka", "description": "Since the Edo period, this area, which forms the border between Sarugakucho and Surugadai, has been a cliff, and originally there was no path.\u00a0<br><br>This is the staircase from Chainsaw Man Reze.", "styleUrl": "#icon-1727-673AB7-labelson"}, "geometry": {"type": "Point", "coordinates": [139.7585312, 35.7003177, 0.0]}}, {"type": "Feature", "properties": {"name": "Catholic Kanda Church", "description": "In front of the church is the phone booth from Chainsaw Man Reze.", "styleUrl": "#icon-1727-673AB7-labelson"}, "geometry": {"type": "Point", "coordinates": [139.7574744, 35.6994677, 0.0]}}, {"type": "Feature", "properties": {"name": "Don Quijote Ginza Honkan", "description": "JJK: Culling Game", "styleUrl": "#icon-1727-673AB7-labelson"}, "geometry": {"type": "Point", "coordinates": [139.7618936, 35.667122, 0.0]}}, {"type": "Feature", "properties": {"name": "Kukyo Hall", "description": "JJK: Culling Game", "styleUrl": "#icon-1727-673AB7-labelson"}, "geometry": {"type": "Point", "coordinates": [139.7441467, 35.7013743, 0.0]}}, {"type": "Feature", "properties": {"name": "Courtyard by Marriott Tokyo Ginza Hotel", "description": "JJK: Culling Game;\u00a0Yuta Okkotsu's return", "styleUrl": "#icon-1727-673AB7-labelson"}, "geometry": {"type": "Point", "coordinates": [139.764925, 35.668321, 0.0]}}, {"type": "Feature", "properties": {"name": "Kabuki-za", "description": "JJK: Culling Game;\u00a0Yuta vs. Yuji confrontation", "styleUrl": "#icon-1727-673AB7-labelson"}, "geometry": {"type": "Point", "coordinates": [139.7677446, 35.6694253, 0.0]}}, {"type": "Feature", "properties": {"name": "KFC Nishi-Shinjuku", "description": "JJK: Culling Game; KFC Breakup.", "styleUrl": "#icon-1727-673AB7-labelson"}, "geometry": {"type": "Point", "coordinates": [139.6994212, 35.6929591, 0.0]}}, {"type": "Feature", "properties": {"name": "Park Hyatt Tokyo", "description": "'LOST IN TRANSLATION' (2003) - Bob & Charlotte's hotel", "styleUrl": "#icon-1739-C6A4CF-labelson"}, "geometry": {"type": "Point", "coordinates": [139.69062, 35.685583, 0.0]}}, {"type": "Feature", "properties": {"name": "Air Nightclub", "description": "'LOST IN TRANSLATION' (2003) - Bob, Charlotte & friends party here", "styleUrl": "#icon-1739-C6A4CF-labelson"}, "geometry": {"type": "Point", "coordinates": [139.7045, 35.6533, 0.0]}}, {"type": "Feature", "properties": {"name": "Shibuya Crossing", "description": "'LOST IN TRANSLATION' (2003), BABEL (2004), THE FAST & THE FURIOUS: TOKYO DRIFT (2006)", "styleUrl": "#icon-1739-C6A4CF-labelson"}, "geometry": {"type": "Point", "coordinates": [139.700593, 35.659058, 0.0]}}, {"type": "Feature", "properties": {"name": "Karaoke-kan", "description": "'LOST IN TRANSLATION' (2003) - Bob sings 'More Than This' by Roxy Music in rooms 601 and 602", "styleUrl": "#icon-1739-C6A4CF-labelson"}, "geometry": {"type": "Point", "coordinates": [139.698139, 35.660831, 0.0]}}, {"type": "Feature", "properties": {"name": "Shabuzen", "description": "'LOST IN TRANSLATION' (2003) - Bob & Charlotte go for yaki-niku", "styleUrl": "#icon-1739-C6A4CF-labelson"}, "geometry": {"type": "Point", "coordinates": [139.694702, 35.663315, 0.0]}}, {"type": "Feature", "properties": {"name": "Rainbow Bridge", "description": "'LOST IN TRANSLATION' (2003) & Kill Bill: Volume I (2004)", "styleUrl": "#icon-1739-C6A4CF-labelson"}, "geometry": {"type": "Point", "coordinates": [139.763144, 35.636564, 0.0]}}, {"type": "Feature", "properties": {"name": "Ichikan Sushi Restaurant", "description": "'LOST IN TRANSLATION' (2003) - Bob & Charlotte have lunch", "styleUrl": "#icon-1739-C6A4CF-labelson"}, "geometry": {"type": "Point", "coordinates": [139.704787, 35.651465, 0.0]}}, {"type": "Feature", "properties": {"name": "Ramen Museum", "description": "'THE RAMEN GIRL' (2008) - date place", "styleUrl": "#icon-1739-C6A4CF-labelson"}, "geometry": {"type": "Point", "coordinates": [139.614572, 35.509896, 0.0]}}, {"type": "Feature", "properties": {"name": "Gonpachi", "description": "'KILL BILL: VOLUME I' (2003) - The inspiration for the 'House of Blue Leaves'", "styleUrl": "#icon-1739-C6A4CF-labelson"}, "geometry": {"type": "Point", "coordinates": [139.723509, 35.66012, 0.0]}}, {"type": "Feature", "properties": {"name": "Shinagawa Station", "description": "'GODZILLA' (1956) - destroyed by Godzilla", "styleUrl": "#icon-1739-C6A4CF-labelson"}, "geometry": {"type": "Point", "coordinates": [139.74044, 35.630152, 0.0]}}, {"type": "Feature", "properties": {"name": "A.P.C. Underground clothing store", "description": "'LOST IN TRANSLATION' (2003)", "styleUrl": "#icon-1739-C6A4CF-labelson"}, "geometry": {"type": "Point", "coordinates": [139.707544, 35.669713, 0.0]}}, {"type": "Feature", "properties": {"name": "Yasukuni Dori", "description": "'KILL BILL: VOLUME I' (2003), 'INTO THE SUN' (2005), 'THE WOLVERINE' (2013) - the classic neon Tokyo scenes whilst driving along this road", "styleUrl": "#icon-1739-C6A4CF-labelson"}, "geometry": {"type": "Point", "coordinates": [139.702032, 35.693436, 0.0]}}, {"type": "Feature", "properties": {"name": "Matsuzakaya Department store", "description": "'GODZILLA' (1956) - Godzilla destroys it", "styleUrl": "#icon-1739-C6A4CF-labelson"}, "geometry": {"type": "Point", "coordinates": [139.764095, 35.669881, 0.0]}}, {"type": "Feature", "properties": {"name": "Wako Department store", "description": "'GODZILLA' (1956) & 'WASABI' (2000) - Godzilla destroys it", "styleUrl": "#icon-1739-C6A4CF-labelson"}, "geometry": {"type": "Point", "coordinates": [139.765022, 35.671613, 0.0]}}, {"type": "Feature", "properties": {"name": "National Diet Building", "description": "'GODZILLA' (1956) - Godzilla destroys it", "styleUrl": "#icon-1739-C6A4CF-labelson"}, "geometry": {"type": "Point", "coordinates": [139.744858, 35.675888, 0.0]}}, {"type": "Feature", "properties": {"name": "New Marion Building", "description": "'GODZILLA' (1956) - Godzilla destroys it", "styleUrl": "#icon-1739-C6A4CF-labelson"}, "geometry": {"type": "Point", "coordinates": [139.697597, 35.687146, 0.0]}}, {"type": "Feature", "properties": {"name": "Kachidoki Bridge", "description": "'GODZILLA' (1956)  <br>Details at http://tokyofox.wordpress.com/2011/12/04/tokyo-filming-locations-pt-v-godzilla-updated/", "styleUrl": "#icon-1739-C6A4CF-labelson"}, "geometry": {"type": "Point", "coordinates": [139.775053, 35.657299, 0.0]}}, {"type": "Feature", "properties": {"name": "Z\u014dj\u014d-ji Temple", "description": "'THE WOLVERINE' (2013) & 'INTO THE SUN' (2005) - funeral scene & meeting with bad guys!", "styleUrl": "#icon-1739-C6A4CF-labelson"}, "geometry": {"type": "Point", "coordinates": [139.748208, 35.657424, 0.0]}}, {"type": "Feature", "properties": {"name": "1 Chome-2-2 Yanagibashi", "description": "'THE GRUDGE' (2004)", "styleUrl": "#icon-1739-C6A4CF-labelson"}, "geometry": {"type": "Point", "coordinates": [139.787199, 35.695581, 0.0]}}, {"type": "Feature", "properties": {"name": "Minamishinjuku Station", "description": "'THE GRUDGE' (2004) - the road to the Grudge house", "styleUrl": "#icon-1739-C6A4CF-labelson"}, "geometry": {"type": "Point", "coordinates": [139.698517, 35.683469, 0.0]}}, {"type": "Feature", "properties": {"name": "Yoyogi Cemetry", "description": "'THE GRUDGE' (2004)", "styleUrl": "#icon-1739-C6A4CF-labelson"}, "geometry": {"type": "Point", "coordinates": [139.691565, 35.684149, 0.0]}}, {"type": "Feature", "properties": {"name": "Nishishinjuku 1-9-2", "description": "'THE GRUDGE' (2004) - Karen & Doug cross the road here", "styleUrl": "#icon-1739-C6A4CF-labelson"}, "geometry": {"type": "Point", "coordinates": [139.69762, 35.688416, 0.0]}}, {"type": "Feature", "properties": {"name": "1-12-1 Takaido-nishi", "description": "'THE GRUDGE' (2004) - The \"University of Tokyo\" where Doug studies", "styleUrl": "#icon-1739-C6A4CF-labelson"}, "geometry": {"type": "Point", "coordinates": [139.609905, 35.680386, 0.0]}}, {"type": "Feature", "properties": {"name": "Fungo Dining Nishishinjuku", "description": "'THE GRUDGE' (2004) - Doug's workplace", "styleUrl": "#icon-1739-C6A4CF-labelson"}, "geometry": {"type": "Point", "coordinates": [139.687706, 35.691462, 0.0]}}, {"type": "Feature", "properties": {"name": "Tokorozawa, Saitama Prefecture", "description": "'JU-ON: THE GRUDGE II' (2003) - The Grudge house & the steps from the finale", "styleUrl": "#icon-1739-C6A4CF-labelson"}, "geometry": {"type": "Point", "coordinates": [139.46861, 35.799671, 0.0]}}, {"type": "Feature", "properties": {"name": "Jougan-ji Temple", "description": "'LOST IN TRANSLATION' (2003) - Charlotte visits here in the rain", "styleUrl": "#icon-1739-C6A4CF-labelson"}, "geometry": {"type": "Point", "coordinates": [139.681643, 35.693756, 0.0]}}, {"type": "Feature", "properties": {"name": "Nakagin Capsule Tower", "description": "'THE WOLVERINE' (2013) - The \"Hiroshima Love Hotel\"", "styleUrl": "#icon-1739-C6A4CF-labelson"}, "geometry": {"type": "Point", "coordinates": [139.762562, 35.667955, 0.0]}}, {"type": "Feature", "properties": {"name": "Big Apple Slot & Pachinko", "description": "'THE WOLVERINE' (2013) - Pachinko Parlour where Logan & Mariko hide out", "styleUrl": "#icon-1739-C6A4CF-labelson"}, "geometry": {"type": "Point", "coordinates": [139.771454, 35.697444, 0.0]}}, {"type": "Feature", "properties": {"name": "Ueno Station", "description": "'THE WOLVERINE' (2013) - Logan & Mariko take a bullet train", "styleUrl": "#icon-1739-C6A4CF-labelson"}, "geometry": {"type": "Point", "coordinates": [139.777254, 35.713768, 0.0]}}, {"type": "Feature", "properties": {"name": "Adidas Futsal Park Shibuya", "description": "'THE FAST & THE FURIOUS: TOKYO DRIFT (2006)", "styleUrl": "#icon-1739-C6A4CF-labelson"}, "geometry": {"type": "Point", "coordinates": [139.70086, 35.658708, 0.0]}}, {"type": "Feature", "properties": {"name": "Takadanobaba Station", "description": "'THE SHINJUKU INCIDENT' (2009) & 'THE WOLVERINE' (2013)", "styleUrl": "#icon-1739-C6A4CF-labelson"}, "geometry": {"type": "Point", "coordinates": [139.703782, 35.712285, 0.0]}}, {"type": "Feature", "properties": {"name": "Omotesando Hills", "styleUrl": "#icon-1739-C6A4CF-labelson-nodesc"}, "geometry": {"type": "Point", "coordinates": [139.7086162, 35.6672869, 0.0]}}, {"type": "Feature", "properties": {"name": "Shinjuku Omoide Yokocho (Midnight Diner)", "description": "The alleyways in Midnight Diner are very similar to the ones found in Omoide Yokocho, a small, narrow street filled with small restaurants serving classic Japanese dishes. This is a common setting for intimate late-night meals, reflecting the tone of the series.", "styleUrl": "#icon-1739-C6A4CF-labelson"}, "geometry": {"type": "Point", "coordinates": [139.69709, 35.6930273, 0.0]}}, {"type": "Feature", "properties": {"name": "Senkaku Junction (JJK)", "description": "Description: The multi-level highway junction is used for intense fight sequences in Jujutsu Kaisen. Its twisting roads provide a unique urban battle setting.", "styleUrl": "#icon-1739-C6A4CF-labelson"}, "geometry": {"type": "Point", "coordinates": [139.6963802, 35.6916719, 0.0]}}, {"type": "Feature", "properties": {"name": "Kabukicho, Shinjuku", "description": "First Love (Takashi Miike)\u00a0A significant portion of the film takes place in this entertainment district.", "styleUrl": "#icon-1739-C6A4CF-labelson"}, "geometry": {"type": "Point", "coordinates": [139.7007103, 35.6947405, 0.0]}}, {"type": "Feature", "properties": {"name": "Harajuku Station (JJK)", "description": "A prominent location in Jujutsu Kaisen, where Itadori, Fushiguro, and Gojo meet.", "styleUrl": "#icon-1739-C6A4CF-labelson"}, "geometry": {"type": "Point", "coordinates": [139.7029143, 35.671599, 0.0]}}, {"type": "Feature", "properties": {"name": "Benitsuru", "description": "FLUFFY Pancakes\u2014a pancake shop that perfectly balances salt and sweetness in its pancakes, making it a representative sweets store for those sightseeing in Asakusa.", "styleUrl": "#icon-1567-F57C00-labelson"}, "geometry": {"type": "Point", "coordinates": [139.7918882, 35.7119914, 0.0]}}, {"type": "Feature", "properties": {"name": "Kanda Yabu Soba", "description": "a favorite of mine; a soba restaurant renowned for its traditional Edo-style noodles. The restaurant, rebuilt following a fire, continues to serve various soba dishes, including the Kamo-san ban soba featuring thick slices of duck and the ten-seiro soba paired with crispy shrimp.", "styleUrl": "#icon-1567-F57C00-labelson"}, "geometry": {"type": "Point", "coordinates": [139.7686863, 35.6970004, 0.0]}}, {"type": "Feature", "properties": {"name": "KEY'S CAF\u00c9 \u79cb\u8449\u539fSEEKBASE\u5e97", "description": "A coffee shop within walking distance in Akihabara with wifi and good group seating. Open early and is a good place to study.", "styleUrl": "#icon-1567-F57C00-labelson"}, "geometry": {"type": "Point", "coordinates": [139.7734777, 35.7013398, 0.0]}}, {"type": "Feature", "properties": {"name": "KOMEDA'S Coffee", "description": "This nearby coffee shop is open early, offers good breakfast deals, and has spacious booths for group work or studying. It is a great place to get out of the hostel in the morning.", "styleUrl": "#icon-1567-F57C00-labelson"}, "geometry": {"type": "Point", "coordinates": [139.7729243, 35.7087031, 0.0]}}, {"type": "Feature", "properties": {"name": "Karashibi Miso Ramen Kikanb\u014d Kanda Honten", "description": "\u2014(Prepare to wait) popular for its intensely spicy Karashibi Miso Ramen. The interior, characterized by its black paint, taiko music, and festival-style devil masks, adds to the immersive dining experience. You can customize their spice level on a scale of five for both \"kara\" (chili heat) and \"Shibi\" (numbing spice from sansho pepper mix), catering to varying spice tolerances.<br>1.\tFeel free to challenge my \u201cOni\u201d title; we can sit side by side if you live that spicy life. \ud83d\ude09", "styleUrl": "#icon-1567-F57C00-labelson"}, "geometry": {"type": "Point", "coordinates": [139.7724063, 35.6936985, 0.0]}}, {"type": "Feature", "properties": {"name": "Himuka Shokudo", "description": "Shokudo (\u98df\u5802, shokud\u014d) are casual restaurants or cafeterias that serve a variety of inexpensive Japanese dishes. Many of them are mom-and-pop, hole-in-the-wall type restaurants where the locals eat. They are numerous across Japan in urban centers and on the countryside.\u00a0<br><br>A meal at a shokudo usually cost around 800 to 1500 yen.", "styleUrl": "#icon-1567-F57C00-labelson"}, "geometry": {"type": "Point", "coordinates": [139.7713926, 35.7023996, 0.0]}}, {"type": "Feature", "properties": {"name": "SUSHIRO Ueno", "description": "Many sushi plates at Sushiro are priced at just \u00a5100, making It an affordable and popular option for conveyor belt sushi in Tokyo.", "styleUrl": "#icon-1567-F57C00-labelson"}, "geometry": {"type": "Point", "coordinates": [139.7751464, 35.7100577, 0.0]}}, {"type": "Feature", "properties": {"name": "Suzukien Asakusa", "description": "the world's richest matcha gelato with seven intensity levels, catering to matcha newcomers and aficionados. Established through a collaboration between Suzukien, a historic tea shop from 1853, and Nanaya, a matcha sweets factory, this venue is a must-visit for its unique range of matcha gelato flavors.", "styleUrl": "#icon-1567-F57C00-labelson"}, "geometry": {"type": "Point", "coordinates": [139.7969391, 35.7163436, 0.0]}}, {"type": "Feature", "properties": {"name": "Syabu-Y\u014d", "description": "An all-you-can-eat shabu-shabu haven starting from 1,539 Yen for weekday lunch, located on the 4th floor of Atre Akihabara 2, directly accessible from Akihabara Station's Showa-Dori Gate. The restaurant utilizes a touchscreen ordering system in English, Chinese, or Korean, catering efficiently to tourists.", "styleUrl": "#icon-1567-F57C00-labelson"}, "geometry": {"type": "Point", "coordinates": [139.7747373, 35.6983481, 0.0]}}, {"type": "Feature", "properties": {"name": "Tesshin", "description": "teppanyaki, particularly featuring premium Kuroge Wagyu beef. Their signature dish is the Kuroge Wagyu Steak, priced at 1,380 JPY plus tax, seasoned with salt, kombu, and wasabi, offering a quintessential Japanese flavor profile.", "styleUrl": "#icon-1567-F57C00-labelson"}, "geometry": {"type": "Point", "coordinates": [139.7067632, 35.6913441, 0.0]}}, {"type": "Feature", "properties": {"name": "Yakiniku King", "description": "A top-rated all-you-can-eat Yakiniku restaurant in Tokyo, Yakiniku King specializes in Japanese BBQ and offers a wide selection of meats for grilling. It's known for its quality, variety, and value, making it a must-visit for meat lovers. In 2022, it beat other well-known chains like Gyu-Kaku to rank as the number one Yakiniku spot. The restaurant also caters to tourists with English touchscreen menus.", "styleUrl": "#icon-1567-F57C00-labelson"}, "geometry": {"type": "Point", "coordinates": [139.7929484, 35.7123703, 0.0]}}, {"type": "Feature", "properties": {"name": "Fruits Parlor Got\u014d", "description": "\u2014caf\u00e9 with sweet fruit parfaits near the old Hanayashiki amusement park. The menu, which changes seasonally, features delights such as grape and melon parfaits during summer, alongside other sweets like pancakes, kakigori shaved ice, and ice cream. It's a perfect spot for those seeking seasonal fruit desserts.", "styleUrl": "#icon-1567-F57C00-labelson"}, "geometry": {"type": "Point", "coordinates": [139.7938062, 35.7157529, 0.0]}}, {"type": "Feature", "properties": {"name": "Buta-Daigaku Shimbashi", "description": "\u2014Known for its pork bowls, which cost approximately 600 Yen for a small size, this is a must-visit for savory pork bowl lovers. It is located near Shibuya.", "styleUrl": "#icon-1567-F57C00-labelson"}, "geometry": {"type": "Point", "coordinates": [139.7569785, 35.6663124, 0.0]}}, {"type": "Feature", "properties": {"name": "Ginza Kagari - Soba", "description": "\u2014 (Prepare to wait) famous for its sophisticated take on chicken ramen. The restaurant's signature dish, tori-paitan, features a creamy, rich broth derived from chicken, which provides a velvety texture and deep flavor.", "styleUrl": "#icon-1567-F57C00-labelson"}, "geometry": {"type": "Point", "coordinates": [139.7613736, 35.6712211, 0.0]}}, {"type": "Feature", "properties": {"name": "Hobo Shinjuku Norengai", "description": "located a short 6-minute walk from Odakyu Shinjuku Station or Minami-Shinjuku Station, offers a collection of restaurants housed in traditional Japanese houses. This area provides a more classic and atmospheric dining experience compared to the modern establishments around Shinjuku Station. The term \"Noren-gai\" translates to \"shop curtain town close to Shinjuku,\" referring to the traditional curtain (noren) that signifies an open shop. These 8 renovated old folk houses host a variety of dining options, not limited to Japanese cuisine.", "styleUrl": "#icon-1567-F57C00-labelson"}, "geometry": {"type": "Point", "coordinates": [139.7033933, 35.6830213, 0.0]}}, {"type": "Feature", "properties": {"name": "Soba House Konjiki-Hototogisu", "description": "\u2014(Prepare to wait) a ramen restaurant in Shinjuku, Tokyo, celebrated for its unique and sophisticated flavors. Awarded a Michelin star in 2018, this ramen establishment is renowned for its shoyu soba.", "styleUrl": "#icon-1567-F57C00-labelson"}, "geometry": {"type": "Point", "coordinates": [139.7082917, 35.6887843, 0.0]}}, {"type": "Feature", "properties": {"name": "Ramen Sugimoto", "description": "\u2014(Prepare to wait) ramen shop located in Nakano, Tokyo. This shop offers a unique ramen experience that both locals and visitors highly praise. The restaurant is known for its special shio (salt) ramen, which includes a generous topping of chashu pork, a perfectly cooked egg, and homemade wontons.", "styleUrl": "#icon-1567-F57C00-labelson"}, "geometry": {"type": "Point", "coordinates": [139.5153279, 35.5502952, 0.0]}}, {"type": "Feature", "properties": {"name": "Shiro-Hige\u2019s Cream Puff Factory", "description": "Nestled in Setagaya, this unique spot Offers Totoro-shaped cream puffs starting at 400 Yen. It is also a spot for Studio Ghibli fans and sweet tooth indulgers.", "styleUrl": "#icon-1567-F57C00-labelson"}, "geometry": {"type": "Point", "coordinates": [139.6627485, 35.6589542, 0.0]}}, {"type": "Feature", "properties": {"name": "Yakumo Sary\u014d", "description": "This serene and minimalist setting for a traditional Japanese breakfast was designed by the renowned architect Shinichiro Ogata. It provides a genuine cultural experience through its dining, highlighting Japanese cuisine as an art form involving various cultural elements, from the dishware to the chef\u2019s etiquette. Yakumo Saryo offers a traditional Japanese breakfast called \"Asacha,\" focusing on tea, priced at \u00a54,000 (around $37).", "styleUrl": "#icon-1567-F57C00-labelson"}, "geometry": {"type": "Point", "coordinates": [139.6675385, 35.6189739, 0.0]}}, {"type": "Feature", "properties": {"name": "Hakush\u016b Teppanyaki", "description": "This establishment shines with its premium Japanese Wagyu Beef prepared teppanyaki-style in Shibuya. It is celebrated for top-notch Kobe beef.", "styleUrl": "#icon-1567-F57C00-labelson"}, "geometry": {"type": "Point", "coordinates": [139.7009933, 35.6562855, 0.0]}}, {"type": "Feature", "properties": {"name": "Summit", "description": "A local grocery story with fresh takeaway choices and sales.", "styleUrl": "#icon-1567-F57C00-labelson"}, "geometry": {"type": "Point", "coordinates": [139.7677747, 35.7058865, 0.0]}}, {"type": "Feature", "properties": {"name": "Kicks Cafe&Bar", "description": "A great local place to get a burger.", "styleUrl": "#icon-1567-F57C00-labelson"}, "geometry": {"type": "Point", "coordinates": [139.7689344, 35.7060035, 0.0]}}, {"type": "Feature", "properties": {"name": "Yatai Hamachan", "description": "Affordable seafood and izakaya-style dining, famous for its fresh fish and sashimi. Sashimi three kinds at 950 YEN (about $7.10)", "styleUrl": "#icon-1567-F57C00-labelson"}, "geometry": {"type": "Point", "coordinates": [139.7750618, 35.7103399, 0.0]}}, {"type": "Feature", "properties": {"name": "Niku no Ohyama", "description": "Known for its deep-fried delights, including beef and seafood, with varying prices based on ingredients.", "styleUrl": "#icon-1567-F57C00-labelson"}, "geometry": {"type": "Point", "coordinates": [139.7752423, 35.7103925, 0.0]}}, {"type": "Feature", "properties": {"name": "Sanzoku Kaizoku", "description": "known for Takoyaki and Kaisendon, the latter being exceptionally good with various fish trimmings on rice.", "styleUrl": "#icon-1567-F57C00-labelson"}, "geometry": {"type": "Point", "coordinates": [139.7746436, 35.7094748, 0.0]}}, {"type": "Feature", "properties": {"name": "YAKITORI Nonotori Nihonbashi", "description": "Yakitori Nonotori in Nihonbashi offers an exceptional dining experience, particularly through its Premium Omakase Course, which features seasonal, expertly grilled skewers and side dishes. The restaurant is praised for its use of binchotan charcoal, which imparts a unique flavor to the yakitori, and its signature tamago kake gohan (rice with eggs cooked in an earthenware pot).", "styleUrl": "#icon-1567-F57C00-labelson"}, "geometry": {"type": "Point", "coordinates": [139.7725862, 35.6904647, 0.0]}}, {"type": "Feature", "properties": {"name": "Hinoya Curry Akihabara", "description": "A good introduction to Japanese curry; it is a little spicy.", "styleUrl": "#icon-1567-F57C00-labelson"}, "geometry": {"type": "Point", "coordinates": [139.7703452, 35.6991165, 0.0]}}, {"type": "Feature", "properties": {"name": "da GIORGIO", "description": "Brick oven style pizza.", "styleUrl": "#icon-1567-F57C00-labelson"}, "geometry": {"type": "Point", "coordinates": [139.7715123, 35.7075507, 0.0]}}, {"type": "Feature", "properties": {"name": "HIGUMA Doughnuts", "description": "HIGUMA Doughnuts in Tokyo Dome City offers fluffy, delicious donuts that are highly praised for their light texture and gentle sweetness.", "styleUrl": "#icon-1567-F57C00-labelson"}, "geometry": {"type": "Point", "coordinates": [139.7543806, 35.7050848, 0.0]}}, {"type": "Feature", "properties": {"name": "LATTE ART MANIA TOKYO", "description": "If you're looking for a cool, creative coffee spot, Latte Art Mania is definitely worth a visit. I appreciated the attention to detail in their intricate latte designs. The space is small, but the energy is inviting, and the charcoal latte offers something unique\u2014both in flavor and presentation.", "styleUrl": "#icon-1567-F57C00-labelson"}, "geometry": {"type": "Point", "coordinates": [139.7164832, 35.6711984, 0.0]}}, {"type": "Feature", "properties": {"name": "Kantan-na Yume", "description": "Kantan-na Yume feels like a hidden gem tucked away in a quiet part of the city. When I visited, the peaceful atmosphere struck me right away\u2014a nice change from the buzz of Shibuya just minutes away. The wagashi I tried were exquisite, beautifully made, and paired perfectly with a cup of matcha.", "styleUrl": "#icon-1567-F57C00-labelson"}, "geometry": {"type": "Point", "coordinates": [139.6922418, 35.6654512, 0.0]}}, {"type": "Feature", "properties": {"name": "Homemade Ramen \u9ea6\u82d7", "description": "f you're looking for an outstanding ramen experience, I highly recommend Homemade Ramen \u9ea6\u82d7. I visited recently, and despite not typically favoring shoyu broths, their version completely won me over with its depth and rich umami flavor. The noodles and toppings were exceptional\u2014the steak in the deluxe toppings was some of the best I've had. Do note that you'll need to arrive early, around 9 or 10 AM, to put your name on the list due to its popularity. But trust me, the wait is worth it.", "styleUrl": "#icon-1567-F57C00-labelson"}, "geometry": {"type": "Point", "coordinates": [139.7328034, 35.5907765, 0.0]}}, {"type": "Feature", "properties": {"name": "Udatsu Sushi", "description": "Some of the best Sushi I have ever experienced. Check the prices first.", "styleUrl": "#icon-1835-E65100-labelson"}, "geometry": {"type": "Point", "coordinates": [139.6952875, 35.641992, 0.0]}}, {"type": "Feature", "properties": {"name": "Menya Nishikawa", "description": "Beef ramen that might change your life.", "styleUrl": "#icon-1640-E65100-labelson"}, "geometry": {"type": "Point", "coordinates": [139.7211026, 35.6920712, 0.0]}}, {"type": "Feature", "properties": {"name": "tonkatsu.jp Omotesando", "description": "Pork that is on a entirely different level.", "styleUrl": "#icon-1553-E65100-labelson"}, "geometry": {"type": "Point", "coordinates": [139.709991, 35.6644248, 0.0]}}, {"type": "Feature", "properties": {"name": "Torisawa 22", "description": "Yakitori on another level; huge wait lsit.", "styleUrl": "#icon-1545-E65100-labelson"}, "geometry": {"type": "Point", "coordinates": [139.7187211, 35.6581628, 0.0]}}, {"type": "Feature", "properties": {"name": "Men Mitsui", "description": "If you're in Asakusa and craving top-tier ramen, Men Mitsui is a must-visit! This renowned spot near Tawaramachi Station offers an incredible soy sauce ramen with medium-thick, hand-kneaded noodles, which soak up the rich yet elegantly balanced chicken and seafood broth. The char siu is exceptional, with both thick and seared belly cuts that deliver juicy, flavorful bites, and the side options like the char siu rice bowl and homemade sauce katsudon add an extra touch of indulgence. With its relaxed, traditional atmosphere, flexible ticketing system, and thoughtful service, Men Mitsui truly earns its place as one of Tokyo's standout ramen destinations.", "styleUrl": "#icon-1640-E65100-labelson"}, "geometry": {"type": "Point", "coordinates": [139.790322, 35.709534, 0.0]}}, {"type": "Feature", "properties": {"name": "Ramenya Shima", "description": "Ramen-ya Shima in Nishi-Shinjuku delivers an extraordinary ramen experience that\u2019s worth every bit of effort to secure a reservation. The rich soy sauce broth has a sharpness and depth that\u2019s perfectly complemented by tender, thin noodles, while the toppings\u2014from soft char siu to runny-yolk eggs\u2014add layers of texture and flavor. Both the soy sauce and salt ramen options are outstanding, with the salt version bringing a subtle, savory punch that lingers beautifully. Paired with the grilled char siu rice, this bowl of ramen stands among Japan's best, making each visit a blissful culinary highlight.", "styleUrl": "#icon-1640-E65100-labelson"}, "geometry": {"type": "Point", "coordinates": [139.6808875, 35.6883441, 0.0]}}, {"type": "Feature", "properties": {"name": "Kibun Sushi", "description": "If you\u2019re looking for top-quality Edomae sushi in Asakusa, Kibun-zushi is a classic spot with over a century of history and a well-earned reputation. Reservations are essential; on my visit, every seat at the counter was filled, mostly with regulars. The atmosphere inside is dim and quiet, with no curtain on the entrance, creating a low-key vibe.", "styleUrl": "#icon-1835-E65100-labelson"}, "geometry": {"type": "Point", "coordinates": [139.795463, 35.7115897, 0.0]}}, {"type": "Feature", "properties": {"name": "Karashibi Miso Ramen Kikanb\u014d Kanda Honten", "description": "Its spicy, and you're gonna wait. One of the best ramen dishes in Tokyo. Come for my Oni level, if you dare. ;)", "styleUrl": "#icon-1571-E65100-labelson"}, "geometry": {"type": "Point", "coordinates": [139.7724063, 35.6936985, 0.0]}}, {"type": "Feature", "properties": {"name": "Arakawa Akabane Park", "styleUrl": "#icon-1720-0F9D58-nodesc"}, "geometry": {"type": "Point", "coordinates": [139.7193141, 35.7895865, 0.0]}}, {"type": "Feature", "properties": {"name": "Imado Shrine", "styleUrl": "#icon-1804-A52714-nodesc"}, "geometry": {"type": "Point", "coordinates": [139.8035323, 35.7193219, 0.0]}}, {"type": "Feature", "properties": {"name": "Ueno Park", "styleUrl": "#icon-1720-0F9D58-nodesc"}, "geometry": {"type": "Point", "coordinates": [139.7734312, 35.7147557, 0.0]}}, {"type": "Feature", "properties": {"name": "Yushima Shrine", "styleUrl": "#icon-1804-A52714-nodesc"}, "geometry": {"type": "Point", "coordinates": [139.7682193, 35.7077406, 0.0]}}, {"type": "Feature", "properties": {"name": "Kanda Myoujin Shrine", "styleUrl": "#icon-1804-A52714-nodesc"}, "geometry": {"type": "Point", "coordinates": [139.7678943, 35.7020186, 0.0]}}, {"type": "Feature", "properties": {"name": "Higo-Hosokawa Garden", "styleUrl": "#icon-1720-0F9D58-nodesc"}, "geometry": {"type": "Point", "coordinates": [139.7226236, 35.7130452, 0.0]}}, {"type": "Feature", "properties": {"name": "Main Garden", "styleUrl": "#icon-1720-0F9D58-nodesc"}, "geometry": {"type": "Point", "coordinates": [139.7286238, 35.679427, 0.0]}}, {"type": "Feature", "properties": {"name": "Hie Shrine", "styleUrl": "#icon-1804-A52714-nodesc"}, "geometry": {"type": "Point", "coordinates": [139.7399379, 35.6746656, 0.0]}}, {"type": "Feature", "properties": {"name": "Meiji Jingu", "styleUrl": "#icon-1804-A52714-nodesc"}, "geometry": {"type": "Point", "coordinates": [139.6993259, 35.6763976, 0.0]}}, {"type": "Feature", "properties": {"name": "Fukagawa Fudou-d\u014d (Naritasan Tokyo branch temple)", "styleUrl": "#icon-1804-A52714-nodesc"}, "geometry": {"type": "Point", "coordinates": [139.7983222, 35.6728891, 0.0]}}, {"type": "Feature", "properties": {"name": "Tomioka Hachiman Shrine", "styleUrl": "#icon-1804-A52714-nodesc"}, "geometry": {"type": "Point", "coordinates": [139.799519, 35.6717809, 0.0]}}, {"type": "Feature", "properties": {"name": "Yoyogi Park", "styleUrl": "#icon-1720-0F9D58-nodesc"}, "geometry": {"type": "Point", "coordinates": [139.6949656, 35.6700649, 0.0]}}, {"type": "Feature", "properties": {"name": "G\u014dtokuji Temple", "styleUrl": "#icon-1804-A52714-nodesc"}, "geometry": {"type": "Point", "coordinates": [139.647481, 35.6488124, 0.0]}}, {"type": "Feature", "properties": {"name": "Kasai Rinkai Park", "styleUrl": "#icon-1720-0F9D58-nodesc"}, "geometry": {"type": "Point", "coordinates": [139.8603206, 35.6419847, 0.0]}}, {"type": "Feature", "properties": {"name": "Kinuta Park", "styleUrl": "#icon-1720-0F9D58-nodesc"}, "geometry": {"type": "Point", "coordinates": [139.6202039, 35.6305007, 0.0]}}, {"type": "Feature", "properties": {"name": "Anamori Inari Shrine", "styleUrl": "#icon-1804-A52714-nodesc"}, "geometry": {"type": "Point", "coordinates": [139.7496877, 35.5505165, 0.0]}}, {"type": "Feature", "properties": {"name": "Inokashira Park", "styleUrl": "#icon-1720-0F9D58-nodesc"}, "geometry": {"type": "Point", "coordinates": [139.5737018, 35.6997476, 0.0]}}, {"type": "Feature", "properties": {"name": "Mount Mitake", "styleUrl": "#icon-1720-0F9D58-nodesc"}, "geometry": {"type": "Point", "coordinates": [139.1495027, 35.7829416, 0.0]}}, {"type": "Feature", "properties": {"name": "Mandarake Shibuya", "description": "Excellent Otaku shop; manga, collectibles, figures, etc.", "styleUrl": "#icon-1684-0288D1"}, "geometry": {"type": "Point", "coordinates": [139.6977247, 35.661535, 0.0]}}, {"type": "Feature", "properties": {"name": "Mandarake Complex", "styleUrl": "#icon-1684-0288D1-nodesc"}, "geometry": {"type": "Point", "coordinates": [139.7705031, 35.7003733, 0.0]}}, {"type": "Feature", "properties": {"name": "DAIKANYAMA T-SITE", "description": "One of the best stores for English language Manga, and amazing collections for animated films, i.e., full storyboards of Akira, etc.", "styleUrl": "#icon-1684-0288D1"}, "geometry": {"type": "Point", "coordinates": [139.6996224, 35.649059, 0.0]}}, {"type": "Feature", "properties": {"name": "TAMASHII NATIONS STORE TOKYO", "styleUrl": "#icon-1684-0288D1-nodesc"}, "geometry": {"type": "Point", "coordinates": [139.7729878, 35.6991106, 0.0]}}, {"type": "Feature", "properties": {"name": "Akihabara Radio Kaikan", "description": "One of the better towers.", "styleUrl": "#icon-1684-0288D1"}, "geometry": {"type": "Point", "coordinates": [139.7719571, 35.6979149, 0.0]}}, {"type": "Feature", "properties": {"name": "Pok\u00e9mon Center Mega Tokyo & Pikachu Sweets", "description": "This is the Pok\u00e9mon store; absolutely the best one.", "styleUrl": "#icon-1684-0288D1"}, "geometry": {"type": "Point", "coordinates": [139.7193245, 35.7289056, 0.0]}}, {"type": "Feature", "properties": {"name": "animate Ikebukuro main store", "styleUrl": "#icon-1684-0288D1-nodesc"}, "geometry": {"type": "Point", "coordinates": [139.7154592, 35.7311443, 0.0]}}, {"type": "Feature", "properties": {"name": "AKIHABARA KOTOBUKIYA", "styleUrl": "#icon-1684-0288D1-nodesc"}, "geometry": {"type": "Point", "coordinates": [139.7704606, 35.6992291, 0.0]}}, {"type": "Feature", "properties": {"name": "Evangelion Store Ikebukuro", "styleUrl": "#icon-1684-0288D1-nodesc"}, "geometry": {"type": "Point", "coordinates": [139.7124392, 35.7307756, 0.0]}}, {"type": "Feature", "properties": {"name": "VenusFort", "description": "Specializes in Studio Ghibli goods, with a fancy Roman-themed interior that enhances the shopping experience.", "styleUrl": "#icon-1684-0288D1"}, "geometry": {"type": "Point", "coordinates": [139.7801649, 35.6250547, 0.0]}}, {"type": "Feature", "properties": {"name": "Shibuya Parco", "description": "Nintendo Tokyo (Shibuya PARCO)<br>Capcom Store Tokyo (Shibuya PARCO)", "styleUrl": "#icon-1684-0288D1"}, "geometry": {"type": "Point", "coordinates": [139.6987767, 35.6620484, 0.0]}}, {"type": "Feature", "properties": {"name": "Godzilla Store Tokyo", "styleUrl": "#icon-1684-0288D1-nodesc"}, "geometry": {"type": "Point", "coordinates": [139.7060582, 35.6901656, 0.0]}}, {"type": "Feature", "properties": {"name": "Tokyo Character Street", "description": "A corridor of small shops dedicated to popular anime franchises, including Pokemon, Gundam, Ultraman, and Studio Ghibli.", "styleUrl": "#icon-1684-0288D1"}, "geometry": {"type": "Point", "coordinates": [139.7686549, 35.6820335, 0.0]}}, {"type": "Feature", "properties": {"name": "Toy Sapiens", "description": "Come get your toys.", "styleUrl": "#icon-1684-0288D1"}, "geometry": {"type": "Point", "coordinates": [139.702665, 35.6655919, 0.0]}}, {"type": "Feature", "properties": {"name": "Kinji Used Clothing Harajuku Branch", "description": "One of the better thrift shops in Shibuya.", "styleUrl": "#icon-1684-0288D1"}, "geometry": {"type": "Point", "coordinates": [139.7060816, 35.6690562, 0.0]}}, {"type": "Feature", "properties": {"name": "Cat Street", "description": "A full street of high end thrift shops; it is still expensive, but there is the occasional find.", "styleUrl": "#icon-1684-0288D1"}, "geometry": {"type": "Point", "coordinates": [139.7088757, 35.6705418, 0.0]}}, {"type": "Feature", "properties": {"name": "CAT STREET. END", "styleUrl": "#icon-1684-0288D1-nodesc"}, "geometry": {"type": "Point", "coordinates": [139.7026128, 35.663074, 0.0]}}, {"type": "Feature", "properties": {"name": "Takeshita Street Entrance Arch (Meiji Street)", "description": "You've probably seen this already.", "styleUrl": "#icon-1684-0288D1"}, "geometry": {"type": "Point", "coordinates": [139.7065865, 35.6703002, 0.0]}}, {"type": "Feature", "properties": {"name": "RAGTAG", "styleUrl": "#icon-1684-0288D1-nodesc"}, "geometry": {"type": "Point", "coordinates": [139.7052181, 35.6657568, 0.0]}}, {"type": "Feature", "properties": {"name": "BRAND COLLECT OMOTESANDO 2", "styleUrl": "#icon-1684-0288D1-nodesc"}, "geometry": {"type": "Point", "coordinates": [139.711114, 35.6672463, 0.0]}}, {"type": "Feature", "properties": {"name": "GINZA TSUTAYA BOOKS", "styleUrl": "#icon-1684-0288D1-nodesc"}, "geometry": {"type": "Point", "coordinates": [139.7642674, 35.6694161, 0.0]}}, {"type": "Feature", "properties": {"name": "Gashapon Ikebukuro Main Store", "description": "The largest small capsule store in the world. Over 3000 machines.", "styleUrl": "#icon-1684-0288D1"}, "geometry": {"type": "Point", "coordinates": [139.7197951, 35.7284675, 0.0]}}, {"type": "Feature", "properties": {"name": "Takadanobaba Mikado Game Center", "description": "Legendary spot. You\u2019ll find Street Fighter II, Aliens vs. Predator, Virtual On, and even Daytona USA.", "styleUrl": "#icon-1637-BDBDBD"}, "geometry": {"type": "Point", "coordinates": [139.7034548, 35.7127351, 0.0]}}, {"type": "Feature", "properties": {"name": "Natsuge Museum", "description": "70s\u201380s games, pure nostalgia", "styleUrl": "#icon-1637-BDBDBD"}, "geometry": {"type": "Point", "coordinates": [139.7035486, 35.7136765, 0.0]}}, {"type": "Feature", "properties": {"name": "HEY (Hirose Entertainment Yard) Taito", "description": "Bullet hell shmups, fighting games", "styleUrl": "#icon-1637-BDBDBD"}, "geometry": {"type": "Point", "coordinates": [139.770917, 35.699072, 0.0]}}, {"type": "Feature", "properties": {"name": "GiGO Akihabara Building 3", "description": "RETRO:G\u00a0Top floor of a GiGO building\u2014hidden gem;\u00a0Sega arcade titles.", "styleUrl": "#icon-1637-BDBDBD"}, "geometry": {"type": "Point", "coordinates": [139.7709387, 35.6992461, 0.0]}}, {"type": "Feature", "properties": {"name": "D.D.R AKIBA\u672c\u5e97", "description": "VR and racing sims", "styleUrl": "#icon-1637-BDBDBD"}, "geometry": {"type": "Point", "coordinates": [139.7705523, 35.7005413, 0.0]}}, {"type": "Feature", "properties": {"name": "Dagashiya Game Museum", "description": "Pre-electronic & medal arcade games; Cheapest and weirdest arcade fun you\u2019ll find.", "styleUrl": "#icon-1637-BDBDBD"}, "geometry": {"type": "Point", "coordinates": [139.7026355, 35.7639965, 0.0]}}, {"type": "Feature", "properties": {"name": "Jazz & Soul Bar - The Deep", "styleUrl": "#icon-1637-BDBDBD-nodesc"}, "geometry": {"type": "Point", "coordinates": [139.7607358, 35.6712082, 0.0]}}, {"type": "Feature", "properties": {"name": "NARU Jazz Livehouse", "styleUrl": "#icon-1637-BDBDBD-nodesc"}, "geometry": {"type": "Point", "coordinates": [139.7630305, 35.6995469, 0.0]}}, {"type": "Feature", "properties": {"name": "Blue Note Tokyo", "styleUrl": "#icon-1637-BDBDBD-nodesc"}, "geometry": {"type": "Point", "coordinates": [139.7162296, 35.6612139, 0.0]}}, {"type": "Feature", "properties": {"name": "Tokyo Joypolis", "styleUrl": "#icon-1637-BDBDBD-nodesc"}, "geometry": {"type": "Point", "coordinates": [139.775364, 35.62866, 0.0]}}, {"type": "Feature", "properties": {"name": "COFFEE JAZZ GENIUS (\u30b3\u30fc\u30d2\u30fc\u30b8\u30e3\u30ba \u30b8\u30cb\u30a2\u30b9)", "styleUrl": "#icon-1637-BDBDBD-nodesc"}, "geometry": {"type": "Point", "coordinates": [139.6760405, 35.6932411, 0.0]}}, {"type": "Feature", "properties": {"name": "RED\u00b0 TOKYO TOWER", "description": "Next Gen VR gaming and horror; also a robot fighting game, with an actual robot.", "styleUrl": "#icon-1637-BDBDBD"}, "geometry": {"type": "Point", "coordinates": [139.745484, 35.6585696, 0.0]}}], "name": "/tmp/outputs/"}